{
"type": "FeatureCollection",
"name": "Estaciones_Completas",
"features": [
{ "type": "Feature", "properties": { "INDICATIVO": "0016B", "NOMBRE": "REUS (CENTRE LECTURA)", "PROVINCIA": "TARRAGONA", "ALTITUD": 118.0, "COORD_X": 844798.0, "COORD_Y": 4564018.0, "VAR_OBSVER": "heNvIHVmtTMpP", "DATUM": "ETRS89", "TIPO": "COMPLETAS" }, "geometry": { "type": "Point", "coordinates": [ 1.1088978, 41.1541942 ] } },
{ "type": "Feature", "properties": { "INDICATIVO": "1082", "NOMBRE": "BILBAO/AEROPUERTO", "PROVINCIA": "BIZKAIA", "ALTITUD": 42.0, "COORD_X": 507593.0, "COORD_Y": 4793919.0, "VAR_OBSVER": "FRhreENvIHBVmtTMpP", "DATUM": "ETRS89", "TIPO": "COMPLETAS" }, "geometry": { "type": "Point", "coordinates": [ -2.9063902, 43.2980603 ] } },
{ "type": "Feature", "properties": { "INDICATIVO": "1495", "NOMBRE": "VIGO/PEINADOR", "PROVINCIA": "PONTEVEDRA", "ALTITUD": 261.0, "COORD_X": 35914.0, "COORD_Y": 4691612.0, "VAR_OBSVER": "RhrSeNvIHBVmtTMpP", "DATUM": "ETRS89", "TIPO": "COMPLETAS" }, "geometry": { "type": "Point", "coordinates": [ -8.6239027, 42.2386634 ] } },
{ "type": "Feature", "properties": { "INDICATIVO": "3013", "NOMBRE": "MOLINA DE ARAGÓN", "PROVINCIA": "GUADALAJARA", "ALTITUD": 1062.0, "COORD_X": 594513.0, "COORD_Y": 4521786.0, "VAR_OBSVER": "hreNvIHBVmtTMpP", "DATUM": "ETRS89", "TIPO": "COMPLETAS" }, "geometry": { "type": "Point", "coordinates": [ -1.8788926, 40.8416707 ] } },
{ "type": "Feature", "properties": { "INDICATIVO": "5270B", "NOMBRE": "JAÉN", "PROVINCIA": "JAEN", "ALTITUD": 580.0, "COORD_X": 428767.0, "COORD_Y": 4181437.0, "VAR_OBSVER": "heNvIHBVmtTMpP", "DATUM": "ETRS89", "TIPO": "COMPLETAS" }, "geometry": { "type": "Point", "coordinates": [ -3.8088899, 37.7775028 ] } },
{ "type": "Feature", "properties": { "INDICATIVO": "7031X", "NOMBRE": "MURCIA/SAN JAVIER II", "PROVINCIA": "MURCIA", "ALTITUD": 4.0, "COORD_X": 693232.0, "COORD_Y": 4183489.0, "VAR_OBSVER": "RheNvIHBVmtTMpP", "DATUM": "ETRS89", "TIPO": "COMPLETAS" }, "geometry": { "type": "Point", "coordinates": [ -0.8058364, 37.7783392 ] } },
{ "type": "Feature", "properties": { "INDICATIVO": "C029R", "NOMBRE": "ARRECIFE (GRANJA CABILDO)", "PROVINCIA": "LAS PALMAS", "ALTITUD": 110.0, "COORD_X": -531419.87, "COORD_Y": 3254517.05, "VAR_OBSVER": "heEIHVmtTMpP", "DATUM": "ETRS89", "TIPO": "COMPLETAS" }, "geometry": { "type": "Point", "coordinates": [ -13.557781, 29.0011063 ] } },
{ "type": "Feature", "properties": { "INDICATIVO": "C658L", "NOMBRE": "LAS PALMAS DE G.C. (TAFIRA CMT)", "PROVINCIA": "LAS PALMAS", "ALTITUD": 269.0, "COORD_X": -728623.57, "COORD_Y": 3169134.41, "VAR_OBSVER": "heENvIHBVmtTMpP", "DATUM": "ETRS89", "TIPO": "COMPLETAS" }, "geometry": { "type": "Point", "coordinates": [ -15.449728, 28.0763826 ] } },
{ "type": "Feature", "properties": { "INDICATIVO": "0341", "NOMBRE": "TONA (ESCOLA)", "PROVINCIA": "BARCELONA", "ALTITUD": 611.0, "COORD_X": 933961.314, "COORD_Y": 4645977.33, "VAR_OBSVER": "hSeNvHBVmtTMpP", "DATUM": "ETRS89", "TIPO": "COMPLETAS" }, "geometry": { "type": "Point", "coordinates": [ 2.2266305, 41.8466745 ] } },
{ "type": "Feature", "properties": { "INDICATIVO": "1477U", "NOMBRE": "VILAGARCIA DE AROUSA", "PROVINCIA": "PONTEVEDRA", "ALTITUD": 36.0, "COORD_X": 26467.034, "COORD_Y": 4730578.22, "VAR_OBSVER": "heIHBVmtTMpP", "DATUM": "ETRS89", "TIPO": "COMPLETAS" }, "geometry": { "type": "Point", "coordinates": [ -8.7698498, 42.5821614 ] } },
{ "type": "Feature", "properties": { "INDICATIVO": "4116I", "NOMBRE": "ALMAGRO / FAMET", "PROVINCIA": "CIUDAD REAL", "ALTITUD": 622.0, "COORD_X": 435739.183, "COORD_Y": 4311446.82, "VAR_OBSVER": "hSeNvIHBVmtTMpP", "DATUM": "ETRS89", "TIPO": "COMPLETAS" }, "geometry": { "type": "Point", "coordinates": [ -3.7415824, 38.9496155 ] } },
{ "type": "Feature", "properties": { "INDICATIVO": "0016A", "NOMBRE": "REUS/AEROPUERTO", "PROVINCIA": "TARRAGONA", "ALTITUD": 71.0, "COORD_X": 850697.0, "COORD_Y": 4563805.0, "VAR_OBSVER": "RheENvIHBVmtTMpP", "DATUM": "ETRS89", "TIPO": "COMPLETAS" }, "geometry": { "type": "Point", "coordinates": [ 1.1788961, 41.1497536 ] } },
{ "type": "Feature", "properties": { "INDICATIVO": "0076", "NOMBRE": "BARCELONA/AEROPUERTO", "PROVINCIA": "BARCELONA", "ALTITUD": 4.0, "COORD_X": 924575.0, "COORD_Y": 4583678.0, "VAR_OBSVER": "RheNvIHBVmtTMpP", "DATUM": "ETRS89", "TIPO": "COMPLETAS" }, "geometry": { "type": "Point", "coordinates": [ 2.07001, 41.2928254 ] } },
{ "type": "Feature", "properties": { "INDICATIVO": "0149D", "NOMBRE": "MANRESA (LA CULLA)", "PROVINCIA": "BARCELONA", "ALTITUD": 291.0, "COORD_X": 902669.0, "COORD_Y": 4630027.0, "VAR_OBSVER": "hSeENvIHVmtTMpP", "DATUM": "ETRS89", "TIPO": "COMPLETAS" }, "geometry": { "type": "Point", "coordinates": [ 1.8402925, 41.7200423 ] } },
{ "type": "Feature", "properties": { "INDICATIVO": "0158O", "NOMBRE": "MONTSERRAT", "PROVINCIA": "BARCELONA", "ALTITUD": 738.0, "COORD_X": 903361.0, "COORD_Y": 4616076.0, "VAR_OBSVER": "heIHmtTMpP", "DATUM": "ETRS89", "TIPO": "COMPLETAS" }, "geometry": { "type": "Point", "coordinates": [ 1.8391777, 41.5944822 ] } },
{ "type": "Feature", "properties": { "INDICATIVO": "0189E", "NOMBRE": "TERRASSA (LES FONTS)", "PROVINCIA": "BARCELONA", "ALTITUD": 198.0, "COORD_X": 920254.0, "COORD_Y": 4610142.0, "VAR_OBSVER": "heNHBmtTMpP", "DATUM": "ETRS89", "TIPO": "COMPLETAS" }, "geometry": { "type": "Point", "coordinates": [ 2.0369595, 41.5325416 ] } },
{ "type": "Feature", "properties": { "INDICATIVO": "0200E", "NOMBRE": "BARCELONA (FABRA)", "PROVINCIA": "BARCELONA", "ALTITUD": 408.0, "COORD_X": 928286.0, "COORD_Y": 4597891.0, "VAR_OBSVER": "hSeENvIHBVmtTMpP", "DATUM": "ETRS89", "TIPO": "COMPLETAS" }, "geometry": { "type": "Point", "coordinates": [ 2.1241731, 41.4183819 ] } },
{ "type": "Feature", "properties": { "INDICATIVO": "0208", "NOMBRE": "GRANOLLERS", "PROVINCIA": "BARCELONA", "ALTITUD": 205.0, "COORD_X": 941551.0, "COORD_Y": 4619874.0, "VAR_OBSVER": "heENvIHBVmtTMpP", "DATUM": "ETRS89", "TIPO": "COMPLETAS" }, "geometry": { "type": "Point", "coordinates": [ 2.2983402, 41.6083791 ] } },
{ "type": "Feature", "properties": { "INDICATIVO": "0294B", "NOMBRE": "LA BISBAL (D'EMPORDA 3)", "PROVINCIA": "GIRONA", "ALTITUD": 51.0, "COORD_X": 1000755.0, "COORD_Y": 4663897.0, "VAR_OBSVER": "hSeEHBmtTMpP", "DATUM": "ETRS89", "TIPO": "COMPLETAS" }, "geometry": { "type": "Point", "coordinates": [ 3.0422478, 41.9678393 ] } },
{ "type": "Feature", "properties": { "INDICATIVO": "0321", "NOMBRE": "CAMPDEVANOL", "PROVINCIA": "GIRONA", "ALTITUD": 731.0, "COORD_X": 926498.0, "COORD_Y": 4687459.0, "VAR_OBSVER": "heHmtTMpP", "DATUM": "ETRS89", "TIPO": "COMPLETAS" }, "geometry": { "type": "Point", "coordinates": [ 2.1672302, 42.2228217 ] } },
{ "type": "Feature", "properties": { "INDICATIVO": "0367", "NOMBRE": "GIRONA/COSTA BRAVA", "PROVINCIA": "GIRONA", "ALTITUD": 143.0, "COORD_X": 978053.0, "COORD_Y": 4656065.0, "VAR_OBSVER": "RhSeENvIHBVmtTMpP", "DATUM": "ETRS89", "TIPO": "COMPLETAS" }, "geometry": { "type": "Point", "coordinates": [ 2.7633464, 41.9117274 ] } },
{ "type": "Feature", "properties": { "INDICATIVO": "0394", "NOMBRE": "LA VALL DE BIANYA (PUJALET)", "PROVINCIA": "GIRONA", "ALTITUD": 436.0, "COORD_X": 946612.0, "COORD_Y": 4689795.0, "VAR_OBSVER": "FheEHBmtTMpP", "DATUM": "ETRS89", "TIPO": "COMPLETAS" }, "geometry": { "type": "Point", "coordinates": [ 2.4116859, 42.2325468 ] } },
{ "type": "Feature", "properties": { "INDICATIVO": "0421E", "NOMBRE": "ESPOLLA 'LES ALBERES'", "PROVINCIA": "GIRONA", "ALTITUD": 100.0, "COORD_X": 994447.0, "COORD_Y": 4710591.0, "VAR_OBSVER": "heNvIHBmtTMpP", "DATUM": "ETRS89", "TIPO": "COMPLETAS" }, "geometry": { "type": "Point", "coordinates": [ 3.0061314, 42.3900598 ] } },
{ "type": "Feature", "properties": { "INDICATIVO": "1014", "NOMBRE": "HONDARRIBIA-MALKARROA", "PROVINCIA": "GIPUZKOA", "ALTITUD": 4.0, "COORD_X": 597873.0, "COORD_Y": 4801163.0, "VAR_OBSVER": "hSeNvIHBVmtTMpP", "DATUM": "ETRS89", "TIPO": "COMPLETAS" }, "geometry": { "type": "Point", "coordinates": [ -1.7922176, 43.35695 ] } },
{ "type": "Feature", "properties": { "INDICATIVO": "1014A", "NOMBRE": "SAN SEBASTIÁN/FUENTERRABIA", "PROVINCIA": "GIPUZKOA", "ALTITUD": 4.0, "COORD_X": 597873.0, "COORD_Y": 4801163.0, "VAR_OBSVER": "RheNvIHBVmtTMpP", "DATUM": "ETRS89", "TIPO": "COMPLETAS" }, "geometry": { "type": "Point", "coordinates": [ -1.7922176, 43.35695 ] } },
{ "type": "Feature", "properties": { "INDICATIVO": "1024E", "NOMBRE": "SAN SEBASTIÁN,IGUELDO", "PROVINCIA": "GIPUZKOA", "ALTITUD": 251.0, "COORD_X": 577768.0, "COORD_Y": 4795286.0, "VAR_OBSVER": "FUDdRhSeENvIHBVmtTMpP", "DATUM": "ETRS89", "TIPO": "COMPLETAS" }, "geometry": { "type": "Point", "coordinates": [ -2.0411137, 43.3063885 ] } },
{ "type": "Feature", "properties": { "INDICATIVO": "1109", "NOMBRE": "SANTANDER/PARAYAS", "PROVINCIA": "CANTABRIA", "ALTITUD": 5.0, "COORD_X": 432708.0, "COORD_Y": 4808811.0, "VAR_OBSVER": "heNvIHBVmtTMpP", "DATUM": "ETRS89", "TIPO": "COMPLETAS" }, "geometry": { "type": "Point", "coordinates": [ -3.8313923, 43.4291715 ] } },
{ "type": "Feature", "properties": { "INDICATIVO": "1111", "NOMBRE": "SANTANDER I,CMT", "PROVINCIA": "CANTABRIA", "ALTITUD": 52.0, "COORD_X": 435270.0, "COORD_Y": 4815666.0, "VAR_OBSVER": "UiDdRhSeENvIHBVmtTMpP", "DATUM": "ETRS89", "TIPO": "COMPLETAS" }, "geometry": { "type": "Point", "coordinates": [ -3.8005558, 43.4911161 ] } },
{ "type": "Feature", "properties": { "INDICATIVO": "1111X", "NOMBRE": "SANTANDER,CMT", "PROVINCIA": "CANTABRIA", "ALTITUD": 52.0, "COORD_X": 435270.0, "COORD_Y": 4815666.0, "VAR_OBSVER": "hSeENvIHBVmtTMpP", "DATUM": "ETRS89", "TIPO": "COMPLETAS" }, "geometry": { "type": "Point", "coordinates": [ -3.8005558, 43.4911161 ] } },
{ "type": "Feature", "properties": { "INDICATIVO": "1207U", "NOMBRE": "GIJÓN-CAMPUS", "PROVINCIA": "ASTURIAS", "ALTITUD": 26.0, "COORD_X": 288175.0, "COORD_Y": 4822241.0, "VAR_OBSVER": "heNvIHBVmtTMpP", "DATUM": "ETRS89", "TIPO": "COMPLETAS" }, "geometry": { "type": "Point", "coordinates": [ -5.6211086, 43.5230672 ] } },
{ "type": "Feature", "properties": { "INDICATIVO": "1208H", "NOMBRE": "GIJÓN, MUSEL", "PROVINCIA": "ASTURIAS", "ALTITUD": 5.0, "COORD_X": 281865.0, "COORD_Y": 4826551.0, "VAR_OBSVER": "heENvIHBmtTMpP", "DATUM": "ETRS89", "TIPO": "COMPLETAS" }, "geometry": { "type": "Point", "coordinates": [ -5.7008353, 43.5600164 ] } },
{ "type": "Feature", "properties": { "INDICATIVO": "1212E", "NOMBRE": "ASTURIAS/AVILÉS", "PROVINCIA": "ASTURIAS", "ALTITUD": 127.0, "COORD_X": 254162.0, "COORD_Y": 4828281.0, "VAR_OBSVER": "heNvIHBVmtTMpP", "DATUM": "ETRS89", "TIPO": "COMPLETAS" }, "geometry": { "type": "Point", "coordinates": [ -6.0441738, 43.5669592 ] } },
{ "type": "Feature", "properties": { "INDICATIVO": "1249I", "NOMBRE": "OVIEDO", "PROVINCIA": "ASTURIAS", "ALTITUD": 336.0, "COORD_X": 267072.0, "COORD_Y": 4804067.0, "VAR_OBSVER": "hrSeENvIHBVmtTMpP", "DATUM": "ETRS89", "TIPO": "COMPLETAS" }, "geometry": { "type": "Point", "coordinates": [ -5.8741733, 43.3533467 ] } },
{ "type": "Feature", "properties": { "INDICATIVO": "1249X", "NOMBRE": "OVIEDO", "PROVINCIA": "ASTURIAS", "ALTITUD": 336.0, "COORD_X": 267072.0, "COORD_Y": 4804067.0, "VAR_OBSVER": "DdRhSeENvIHBVmtTMpP", "DATUM": "ETRS89", "TIPO": "COMPLETAS" }, "geometry": { "type": "Point", "coordinates": [ -5.8741733, 43.3533467 ] } },
{ "type": "Feature", "properties": { "INDICATIVO": "1354C", "NOMBRE": "FERROL-LA GRAÑA", "PROVINCIA": "A CORUÑA", "ALTITUD": 4.0, "COORD_X": 74381.0, "COORD_Y": 4827192.0, "VAR_OBSVER": "heNvIHBVmtTMpP", "DATUM": "ETRS89", "TIPO": "COMPLETAS" }, "geometry": { "type": "Point", "coordinates": [ -8.2622294, 43.476435 ] } },
{ "type": "Feature", "properties": { "INDICATIVO": "1387", "NOMBRE": "A CORUÑA", "PROVINCIA": "A CORUÑA", "ALTITUD": 58.0, "COORD_X": 60704.0, "COORD_Y": 4815740.0, "VAR_OBSVER": "oUiDdRhSeENvIHBVmtTMpP", "DATUM": "ETRS89", "TIPO": "COMPLETAS" }, "geometry": { "type": "Point", "coordinates": [ -8.4213987, 43.3658842 ] } },
{ "type": "Feature", "properties": { "INDICATIVO": "1387E", "NOMBRE": "A CORUÑA/ALVEDRO", "PROVINCIA": "A CORUÑA", "ALTITUD": 98.0, "COORD_X": 64289.0, "COORD_Y": 4808938.0, "VAR_OBSVER": "RheENvIHBVmtTMpP", "DATUM": "ETRS89", "TIPO": "COMPLETAS" }, "geometry": { "type": "Point", "coordinates": [ -8.3719537, 43.3069909 ] } },
{ "type": "Feature", "properties": { "INDICATIVO": "1428", "NOMBRE": "SANTIAGO DE COMPOSTELA/LABACOLLA", "PROVINCIA": "A CORUÑA", "ALTITUD": 370.0, "COORD_X": 58145.0, "COORD_Y": 4762610.0, "VAR_OBSVER": "RhSeENvIHBVmtTMpP", "DATUM": "ETRS89", "TIPO": "COMPLETAS" }, "geometry": { "type": "Point", "coordinates": [ -8.4105721, 42.8881075 ] } },
{ "type": "Feature", "properties": { "INDICATIVO": "1484C", "NOMBRE": "PONTEVEDRA", "PROVINCIA": "PONTEVEDRA", "ALTITUD": 108.0, "COORD_X": 38048.0, "COORD_Y": 4713754.0, "VAR_OBSVER": "hSeENvIHBVmtTMpP", "DATUM": "ETRS89", "TIPO": "COMPLETAS" }, "geometry": { "type": "Point", "coordinates": [ -8.6158504, 42.4383845 ] } },
{ "type": "Feature", "properties": { "INDICATIVO": "1505", "NOMBRE": "LUGO/ROZAS", "PROVINCIA": "LUGO", "ALTITUD": 445.0, "COORD_X": 137309.0, "COORD_Y": 4782840.0, "VAR_OBSVER": "hrSeENvIHBVmtTMpP", "DATUM": "ETRS89", "TIPO": "COMPLETAS" }, "geometry": { "type": "Point", "coordinates": [ -7.4575028, 43.1114205 ] } },
{ "type": "Feature", "properties": { "INDICATIVO": "1549", "NOMBRE": "PONFERRADA", "PROVINCIA": "LEON", "ALTITUD": 534.0, "COORD_X": 204486.0, "COORD_Y": 4718674.0, "VAR_OBSVER": "dRhSeENvIHBVmtTMpP", "DATUM": "ETRS89", "TIPO": "COMPLETAS" }, "geometry": { "type": "Point", "coordinates": [ -6.6000069, 42.5639131 ] } },
{ "type": "Feature", "properties": { "INDICATIVO": "1690A", "NOMBRE": "OURENSE", "PROVINCIA": "OURENSE", "ALTITUD": 143.0, "COORD_X": 99540.0, "COORD_Y": 4697347.0, "VAR_OBSVER": "hSeENvIHBVmtTMpP", "DATUM": "ETRS89", "TIPO": "COMPLETAS" }, "geometry": { "type": "Point", "coordinates": [ -7.8597295, 42.3253195 ] } },
{ "type": "Feature", "properties": { "INDICATIVO": "2030", "NOMBRE": "SORIA", "PROVINCIA": "SORIA", "ALTITUD": 1082.0, "COORD_X": 542963.0, "COORD_Y": 4624924.0, "VAR_OBSVER": "iDdRhSeENvIHBVmtTMpP", "DATUM": "ETRS89", "TIPO": "COMPLETAS" }, "geometry": { "type": "Point", "coordinates": [ -2.4830515, 41.7749969 ] } },
{ "type": "Feature", "properties": { "INDICATIVO": "2331", "NOMBRE": "BURGOS/VILLAFRÍA", "PROVINCIA": "BURGOS", "ALTITUD": 891.0, "COORD_X": 448826.0, "COORD_Y": 4689503.0, "VAR_OBSVER": "hrSeENvIHBVmtTMpP", "DATUM": "ETRS89", "TIPO": "COMPLETAS" }, "geometry": { "type": "Point", "coordinates": [ -3.6213874, 42.3561109 ] } },
{ "type": "Feature", "properties": { "INDICATIVO": "2422", "NOMBRE": "VALLADOLID", "PROVINCIA": "VALLADOLID", "ALTITUD": 735.0, "COORD_X": 353884.0, "COORD_Y": 4611387.0, "VAR_OBSVER": "UiDdRhSeENvIHBVmtTMpP", "DATUM": "ETRS89", "TIPO": "COMPLETAS" }, "geometry": { "type": "Point", "coordinates": [ -4.7544467, 41.6408394 ] } },
{ "type": "Feature", "properties": { "INDICATIVO": "2444", "NOMBRE": "ÁVILA", "PROVINCIA": "AVILA", "ALTITUD": 1130.0, "COORD_X": 357981.0, "COORD_Y": 4502280.0, "VAR_OBSVER": "hSeENvIHBVmtTMpP", "DATUM": "ETRS89", "TIPO": "COMPLETAS" }, "geometry": { "type": "Point", "coordinates": [ -4.6800001, 40.6591732 ] } },
{ "type": "Feature", "properties": { "INDICATIVO": "2462", "NOMBRE": "NAVACERRADA,PUERTO", "PROVINCIA": "MADRID", "ALTITUD": 1894.0, "COORD_X": 414745.0, "COORD_Y": 4516276.0, "VAR_OBSVER": "FUiDdRhSeNvIHBVmtTMpP", "DATUM": "ETRS89", "TIPO": "COMPLETAS" }, "geometry": { "type": "Point", "coordinates": [ -4.0105533, 40.7930564 ] } },
{ "type": "Feature", "properties": { "INDICATIVO": "2465", "NOMBRE": "SEGOVIA", "PROVINCIA": "SEGOVIA", "ALTITUD": 1005.0, "COORD_X": 405190.0, "COORD_Y": 4533294.0, "VAR_OBSVER": "hSeENvIHBVmtTMpP", "DATUM": "ETRS89", "TIPO": "COMPLETAS" }, "geometry": { "type": "Point", "coordinates": [ -4.1263865, 40.9452851 ] } },
{ "type": "Feature", "properties": { "INDICATIVO": "2539", "NOMBRE": "VALLADOLID/VILLANUBLA", "PROVINCIA": "VALLADOLID", "ALTITUD": 846.0, "COORD_X": 345633.0, "COORD_Y": 4619459.0, "VAR_OBSVER": "RhSeENvIHBVmtTMpP", "DATUM": "ETRS89", "TIPO": "COMPLETAS" }, "geometry": { "type": "Point", "coordinates": [ -4.8555564, 41.7119527 ] } },
{ "type": "Feature", "properties": { "INDICATIVO": "2614", "NOMBRE": "ZAMORA", "PROVINCIA": "ZAMORA", "ALTITUD": 656.0, "COORD_X": 271750.0, "COORD_Y": 4599605.0, "VAR_OBSVER": "hSeENvIHBVmtTMpP", "DATUM": "ETRS89", "TIPO": "COMPLETAS" }, "geometry": { "type": "Point", "coordinates": [ -5.7352794, 41.5155654 ] } },
{ "type": "Feature", "properties": { "INDICATIVO": "2661B", "NOMBRE": "LEÓN/AEROPUERTO", "PROVINCIA": "LEON", "ALTITUD": 912.0, "COORD_X": 283123.0, "COORD_Y": 4719725.0, "VAR_OBSVER": "heENvIHBVmtTMpP", "DATUM": "ETRS89", "TIPO": "COMPLETAS" }, "geometry": { "type": "Point", "coordinates": [ -5.6436077, 42.5994607 ] } },
{ "type": "Feature", "properties": { "INDICATIVO": "2867", "NOMBRE": "SALAMANCA/MATACAN", "PROVINCIA": "SALAMANCA", "ALTITUD": 790.0, "COORD_X": 289748.0, "COORD_Y": 4537262.0, "VAR_OBSVER": "UiDdRhrSeENvIHBVmtTMpP", "DATUM": "ETRS89", "TIPO": "COMPLETAS" }, "geometry": { "type": "Point", "coordinates": [ -5.498335, 40.959454 ] } },
{ "type": "Feature", "properties": { "INDICATIVO": "3129", "NOMBRE": "MADRID/BARAJAS", "PROVINCIA": "MADRID", "ALTITUD": 609.0, "COORD_X": 452902.0, "COORD_Y": 4479703.0, "VAR_OBSVER": "FRheNvIHBVmtTMpP", "DATUM": "ETRS89", "TIPO": "COMPLETAS" }, "geometry": { "type": "Point", "coordinates": [ -3.5555582, 40.4666672 ] } },
{ "type": "Feature", "properties": { "INDICATIVO": "3168D", "NOMBRE": "GUADALAJARA", "PROVINCIA": "GUADALAJARA", "ALTITUD": 721.0, "COORD_X": 487315.0, "COORD_Y": 4497727.0, "VAR_OBSVER": "FheNvIHBVmtTMpP", "DATUM": "ETRS89", "TIPO": "COMPLETAS" }, "geometry": { "type": "Point", "coordinates": [ -3.1499946, 40.6302821 ] } },
{ "type": "Feature", "properties": { "INDICATIVO": "3175", "NOMBRE": "MADRID/TORREJÓN", "PROVINCIA": "MADRID", "ALTITUD": 607.0, "COORD_X": 462405.0, "COORD_Y": 4482085.0, "VAR_OBSVER": "heNvIHBVmtTMpP", "DATUM": "ETRS89", "TIPO": "COMPLETAS" }, "geometry": { "type": "Point", "coordinates": [ -3.4436076, 40.4886105 ] } },
{ "type": "Feature", "properties": { "INDICATIVO": "3191E", "NOMBRE": "COLMENAR VIEJO/FAMET", "PROVINCIA": "MADRID", "ALTITUD": 1004.0, "COORD_X": 435367.0, "COORD_Y": 4505305.0, "VAR_OBSVER": "heENvIHBVmtTMpP", "DATUM": "ETRS89", "TIPO": "COMPLETAS" }, "geometry": { "type": "Point", "coordinates": [ -3.7650053, 40.6961133 ] } },
{ "type": "Feature", "properties": { "INDICATIVO": "3195", "NOMBRE": "MADRID,RETIRO", "PROVINCIA": "MADRID", "ALTITUD": 667.0, "COORD_X": 442470.0, "COORD_Y": 4473702.0, "VAR_OBSVER": "hrSeNvIHBVmtTMpP", "DATUM": "ETRS89", "TIPO": "COMPLETAS" }, "geometry": { "type": "Point", "coordinates": [ -3.6780611, 40.4119504 ] } },
{ "type": "Feature", "properties": { "INDICATIVO": "3196", "NOMBRE": "MADRID/CUATRO VIENTOS", "PROVINCIA": "MADRID", "ALTITUD": 690.0, "COORD_X": 433267.0, "COORD_Y": 4469738.0, "VAR_OBSVER": "heENvIHBVmtTMpP", "DATUM": "ETRS89", "TIPO": "COMPLETAS" }, "geometry": { "type": "Point", "coordinates": [ -3.7861053, 40.3755544 ] } },
{ "type": "Feature", "properties": { "INDICATIVO": "3200", "NOMBRE": "MADRID/GETAFE", "PROVINCIA": "MADRID", "ALTITUD": 620.0, "COORD_X": 438621.0, "COORD_Y": 4461244.0, "VAR_OBSVER": "heNvIHBVmtTMpP", "DATUM": "ETRS89", "TIPO": "COMPLETAS" }, "geometry": { "type": "Point", "coordinates": [ -3.7222245, 40.2994472 ] } },
{ "type": "Feature", "properties": { "INDICATIVO": "3260B", "NOMBRE": "TOLEDO", "PROVINCIA": "TOLEDO", "ALTITUD": 515.0, "COORD_X": 410625.0, "COORD_Y": 4415486.0, "VAR_OBSVER": "dRhSeENvIHBVmtTMpP", "DATUM": "ETRS89", "TIPO": "COMPLETAS" }, "geometry": { "type": "Point", "coordinates": [ -4.0452738, 39.8847272 ] } },
{ "type": "Feature", "properties": { "INDICATIVO": "3469A", "NOMBRE": "CÁCERES", "PROVINCIA": "CACERES", "ALTITUD": 394.0, "COORD_X": 212776.0, "COORD_Y": 4374415.0, "VAR_OBSVER": "FUiDdRhSeENvIHBVmtTMpP", "DATUM": "ETRS89", "TIPO": "COMPLETAS" }, "geometry": { "type": "Point", "coordinates": [ -6.3388953, 39.4714101 ] } },
{ "type": "Feature", "properties": { "INDICATIVO": "4121", "NOMBRE": "CIUDAD REAL", "PROVINCIA": "CIUDAD REAL", "ALTITUD": 628.0, "COORD_X": 420299.0, "COORD_Y": 4315977.0, "VAR_OBSVER": "FUDdRhSeENvIHBVmtTMpP", "DATUM": "ETRS89", "TIPO": "COMPLETAS" }, "geometry": { "type": "Point", "coordinates": [ -3.9202739, 38.9891655 ] } },
{ "type": "Feature", "properties": { "INDICATIVO": "4452", "NOMBRE": "BADAJOZ/TALAVERA LA REAL", "PROVINCIA": "BADAJOZ", "ALTITUD": 185.0, "COORD_X": 169155.0, "COORD_Y": 4310751.0, "VAR_OBSVER": "RhSeENvIHBVmtTMpP", "DATUM": "ETRS89", "TIPO": "COMPLETAS" }, "geometry": { "type": "Point", "coordinates": [ -6.8138878, 38.8833603 ] } },
{ "type": "Feature", "properties": { "INDICATIVO": "4642E", "NOMBRE": "HUELVA, RONDA ESTE", "PROVINCIA": "HUELVA", "ALTITUD": 19.0, "COORD_X": 153156.0, "COORD_Y": 4132930.0, "VAR_OBSVER": "dRhrSeENvIHBVmtTMpP", "DATUM": "ETRS89", "TIPO": "COMPLETAS" }, "geometry": { "type": "Point", "coordinates": [ -6.9116644, 37.2783595 ] } },
{ "type": "Feature", "properties": { "INDICATIVO": "5000C", "NOMBRE": "CEUTA", "PROVINCIA": "CEUTA", "ALTITUD": 87.0, "COORD_X": 288160.0, "COORD_Y": 3974139.0, "VAR_OBSVER": "heNvIHBVmtTMpP", "DATUM": "ETRS89", "TIPO": "COMPLETAS" }, "geometry": { "type": "Point", "coordinates": [ -5.3469417, 35.888619 ] } },
{ "type": "Feature", "properties": { "INDICATIVO": "5402", "NOMBRE": "CÓRDOBA/AEROPUERTO", "PROVINCIA": "CORDOBA", "ALTITUD": 90.0, "COORD_X": 337528.0, "COORD_Y": 4190657.0, "VAR_OBSVER": "UiDdRheENvIHBVmtTMpP", "DATUM": "ETRS89", "TIPO": "COMPLETAS" }, "geometry": { "type": "Point", "coordinates": [ -4.8466721, 37.848898 ] } },
{ "type": "Feature", "properties": { "INDICATIVO": "5514", "NOMBRE": "GRANADA/BASE AÉREA", "PROVINCIA": "GRANADA", "ALTITUD": 687.0, "COORD_X": 443922.0, "COORD_Y": 4110282.0, "VAR_OBSVER": "UdRhSeNvIHBVmtTMpP", "DATUM": "ETRS89", "TIPO": "COMPLETAS" }, "geometry": { "type": "Point", "coordinates": [ -3.6313923, 37.1372258 ] } },
{ "type": "Feature", "properties": { "INDICATIVO": "5530E", "NOMBRE": "GRANADA/AEROPUERTO", "PROVINCIA": "GRANADA", "ALTITUD": 567.0, "COORD_X": 429933.0, "COORD_Y": 4116211.0, "VAR_OBSVER": "RhreENvIHBVmtTMpP", "DATUM": "ETRS89", "TIPO": "COMPLETAS" }, "geometry": { "type": "Point", "coordinates": [ -3.7894404, 37.1897223 ] } },
{ "type": "Feature", "properties": { "INDICATIVO": "5783", "NOMBRE": "SEVILLA/SAN PABLO", "PROVINCIA": "SEVILLA", "ALTITUD": 34.0, "COORD_X": 245199.0, "COORD_Y": 4144990.0, "VAR_OBSVER": "RheENvIHBVmtTMpP", "DATUM": "ETRS89", "TIPO": "COMPLETAS" }, "geometry": { "type": "Point", "coordinates": [ -5.8791717, 37.4166851 ] } },
{ "type": "Feature", "properties": { "INDICATIVO": "5796", "NOMBRE": "MORÓN DE LA FRONTERA", "PROVINCIA": "SEVILLA", "ALTITUD": 87.0, "COORD_X": 268128.0, "COORD_Y": 4116310.0, "VAR_OBSVER": "heNvIHBVmtTMpP", "DATUM": "ETRS89", "TIPO": "COMPLETAS" }, "geometry": { "type": "Point", "coordinates": [ -5.6113932, 37.1644591 ] } },
{ "type": "Feature", "properties": { "INDICATIVO": "5910", "NOMBRE": "ROTA B.N.OBSERVATORIO'", "PROVINCIA": "CADIZ", "ALTITUD": 21.0, "COORD_X": 202042.0, "COORD_Y": 4059991.0, "VAR_OBSVER": "heNvIHBVmtTMpP", "DATUM": "ETRS89", "TIPO": "COMPLETAS" }, "geometry": { "type": "Point", "coordinates": [ -6.3325033, 36.6389088 ] } },
{ "type": "Feature", "properties": { "INDICATIVO": "5960", "NOMBRE": "JEREZ DE LA FRONTERA/AEROPUERTO", "PROVINCIA": "CADIZ", "ALTITUD": 27.0, "COORD_X": 227181.0, "COORD_Y": 4071559.0, "VAR_OBSVER": "RheNvIHBVmtTMpP", "DATUM": "ETRS89", "TIPO": "COMPLETAS" }, "geometry": { "type": "Point", "coordinates": [ -6.0558377, 36.7505762 ] } },
{ "type": "Feature", "properties": { "INDICATIVO": "5973", "NOMBRE": "CÁDIZ,OBS.", "PROVINCIA": "CADIZ", "ALTITUD": 2.0, "COORD_X": 208201.0, "COORD_Y": 4044317.0, "VAR_OBSVER": "UdRhreNvIHBVmtTMpP", "DATUM": "ETRS89", "TIPO": "COMPLETAS" }, "geometry": { "type": "Point", "coordinates": [ -6.2577837, 36.4997421 ] } },
{ "type": "Feature", "properties": { "INDICATIVO": "6000A", "NOMBRE": "MELILLA", "PROVINCIA": "MELILLA", "ALTITUD": 52.0, "COORD_X": 503966.0, "COORD_Y": 3903695.0, "VAR_OBSVER": "RhreNvIHBVmtTMpP", "DATUM": "ETRS89", "TIPO": "COMPLETAS" }, "geometry": { "type": "Point", "coordinates": [ -2.9563906, 35.2763879 ] } },
{ "type": "Feature", "properties": { "INDICATIVO": "6155A", "NOMBRE": "MÁLAGA/AEROPUERTO", "PROVINCIA": "MALAGA", "ALTITUD": 5.0, "COORD_X": 367539.0, "COORD_Y": 4058858.0, "VAR_OBSVER": "dRheENvIHBVmtTMpP", "DATUM": "ETRS89", "TIPO": "COMPLETAS" }, "geometry": { "type": "Point", "coordinates": [ -4.4822225, 36.6661174 ] } },
{ "type": "Feature", "properties": { "INDICATIVO": "6325O", "NOMBRE": "ALMERÍA/AEROPUERTO", "PROVINCIA": "ALMERIA", "ALTITUD": 21.0, "COORD_X": 557332.0, "COORD_Y": 4078025.0, "VAR_OBSVER": "UDdRhreENvIHBVmtTMpP", "DATUM": "ETRS89", "TIPO": "COMPLETAS" }, "geometry": { "type": "Point", "coordinates": [ -2.3569421, 36.8463893 ] } },
{ "type": "Feature", "properties": { "INDICATIVO": "7178I", "NOMBRE": "MURCIA", "PROVINCIA": "MURCIA", "ALTITUD": 61.0, "COORD_X": 660598.0, "COORD_Y": 4207610.0, "VAR_OBSVER": "oUiDdRhSeENvIHBVmtTMpP", "DATUM": "ETRS89", "TIPO": "COMPLETAS" }, "geometry": { "type": "Point", "coordinates": [ -1.1708374, 38.0019498 ] } },
{ "type": "Feature", "properties": { "INDICATIVO": "7228", "NOMBRE": "MURCIA/ALCANTARILLA", "PROVINCIA": "MURCIA", "ALTITUD": 75.0, "COORD_X": 655618.0, "COORD_Y": 4202611.0, "VAR_OBSVER": "heNvIHBVmtTMpP", "DATUM": "ETRS89", "TIPO": "COMPLETAS" }, "geometry": { "type": "Point", "coordinates": [ -1.2286159, 37.9577842 ] } },
{ "type": "Feature", "properties": { "INDICATIVO": "8019", "NOMBRE": "ALICANTE/EL ALTET", "PROVINCIA": "ALICANTE", "ALTITUD": 43.0, "COORD_X": 712468.0, "COORD_Y": 4239983.0, "VAR_OBSVER": "RhSeENvIHBVmtTMpP", "DATUM": "ETRS89", "TIPO": "COMPLETAS" }, "geometry": { "type": "Point", "coordinates": [ -0.5708299, 38.2827875 ] } },
{ "type": "Feature", "properties": { "INDICATIVO": "8025", "NOMBRE": "ALICANTE", "PROVINCIA": "ALICANTE", "ALTITUD": 81.0, "COORD_X": 718904.0, "COORD_Y": 4250120.0, "VAR_OBSVER": "RheENvIHBVmtTMpP", "DATUM": "ETRS89", "TIPO": "COMPLETAS" }, "geometry": { "type": "Point", "coordinates": [ -0.4941678, 38.3725125 ] } },
{ "type": "Feature", "properties": { "INDICATIVO": "8096", "NOMBRE": "CUENCA", "PROVINCIA": "CUENCA", "ALTITUD": 948.0, "COORD_X": 574025.0, "COORD_Y": 4435579.0, "VAR_OBSVER": "hrSeENvIHBVmtTMpP", "DATUM": "ETRS89", "TIPO": "COMPLETAS" }, "geometry": { "type": "Point", "coordinates": [ -2.1319415, 40.0672201 ] } },
{ "type": "Feature", "properties": { "INDICATIVO": "8175", "NOMBRE": "ALBACETE/LOS LLANOS", "PROVINCIA": "ALBACETE", "ALTITUD": 702.0, "COORD_X": 598566.0, "COORD_Y": 4312028.0, "VAR_OBSVER": "RheNvIHBVmtTMpP", "DATUM": "ETRS89", "TIPO": "COMPLETAS" }, "geometry": { "type": "Point", "coordinates": [ -1.8625054, 38.9516654 ] } },
{ "type": "Feature", "properties": { "INDICATIVO": "8178D", "NOMBRE": "ALBACETE,OBS.", "PROVINCIA": "ALBACETE", "ALTITUD": 674.0, "COORD_X": 598516.0, "COORD_Y": 4318009.0, "VAR_OBSVER": "FiDdRhSeENvIHBVmtTMpP", "DATUM": "ETRS89", "TIPO": "COMPLETAS" }, "geometry": { "type": "Point", "coordinates": [ -1.8622202, 39.0055575 ] } },
{ "type": "Feature", "properties": { "INDICATIVO": "8368U", "NOMBRE": "TERUEL", "PROVINCIA": "TERUEL", "ALTITUD": 900.0, "COORD_X": 659303.0, "COORD_Y": 4468356.0, "VAR_OBSVER": "dRhSeENvIHBVmtTMpP", "DATUM": "ETRS89", "TIPO": "COMPLETAS" }, "geometry": { "type": "Point", "coordinates": [ -1.1241714, 40.3505611 ] } },
{ "type": "Feature", "properties": { "INDICATIVO": "8414A", "NOMBRE": "VALENCIA/AEROPUERTO", "PROVINCIA": "VALENCIA", "ALTITUD": 56.0, "COORD_X": 717181.0, "COORD_Y": 4373646.0, "VAR_OBSVER": "UiDdRheNvIHBVmtTMpP", "DATUM": "ETRS89", "TIPO": "COMPLETAS" }, "geometry": { "type": "Point", "coordinates": [ -0.4747235, 39.4850159 ] } },
{ "type": "Feature", "properties": { "INDICATIVO": "8500A", "NOMBRE": "CASTELLÓN-ALMAZORA", "PROVINCIA": "CASTELLON", "ALTITUD": 43.0, "COORD_X": 750113.0, "COORD_Y": 4427117.0, "VAR_OBSVER": "RheNvIHBVmtTMpP", "DATUM": "ETRS89", "TIPO": "COMPLETAS" }, "geometry": { "type": "Point", "coordinates": [ -0.0719453, 39.9572346 ] } },
{ "type": "Feature", "properties": { "INDICATIVO": "9091O", "NOMBRE": "FORONDA-TXOKIZA", "PROVINCIA": "ARABA/ALAVA", "ALTITUD": 513.0, "COORD_X": 521641.0, "COORD_Y": 4747739.0, "VAR_OBSVER": "RhSeENvIHBVmtTMpP", "DATUM": "ETRS89", "TIPO": "COMPLETAS" }, "geometry": { "type": "Point", "coordinates": [ -2.7350003, 42.8819434 ] } },
{ "type": "Feature", "properties": { "INDICATIVO": "9091R", "NOMBRE": "VITORIA/FORONDA", "PROVINCIA": "ARABA/ALAVA", "ALTITUD": 513.0, "COORD_X": 521803.0, "COORD_Y": 4746629.0, "VAR_OBSVER": "RhSeNvIHBVmtTMpP", "DATUM": "ETRS89", "TIPO": "COMPLETAS" }, "geometry": { "type": "Point", "coordinates": [ -2.7330597, 42.871943 ] } },
{ "type": "Feature", "properties": { "INDICATIVO": "9170", "NOMBRE": "LOGROÑO/AGONCILLO", "PROVINCIA": "LA RIOJA", "ALTITUD": 353.0, "COORD_X": 555002.0, "COORD_Y": 4700205.0, "VAR_OBSVER": "DdRheNvIHBVmtTMpP", "DATUM": "ETRS89", "TIPO": "COMPLETAS" }, "geometry": { "type": "Point", "coordinates": [ -2.3311105, 42.4522255 ] } },
{ "type": "Feature", "properties": { "INDICATIVO": "9263D", "NOMBRE": "PAMPLONA/NOAIN", "PROVINCIA": "NAVARRA", "ALTITUD": 459.0, "COORD_X": 610434.0, "COORD_Y": 4736929.0, "VAR_OBSVER": "RhreNvIHBVmtTMpP", "DATUM": "ETRS89", "TIPO": "COMPLETAS" }, "geometry": { "type": "Point", "coordinates": [ -1.6500034, 42.7769444 ] } },
{ "type": "Feature", "properties": { "INDICATIVO": "9381I", "NOMBRE": "CALAMOCHA", "PROVINCIA": "TERUEL", "ALTITUD": 890.0, "COORD_X": 643697.0, "COORD_Y": 4531958.0, "VAR_OBSVER": "hSeNvIHBVmtTMpP", "DATUM": "ETRS89", "TIPO": "COMPLETAS" }, "geometry": { "type": "Point", "coordinates": [ -1.2933272, 40.9261205 ] } },
{ "type": "Feature", "properties": { "INDICATIVO": "9390", "NOMBRE": "DAROCA I", "PROVINCIA": "ZARAGOZA", "ALTITUD": 779.0, "COORD_X": 633492.0, "COORD_Y": 4552680.0, "VAR_OBSVER": "FheNvIHBVmtTMpP", "DATUM": "ETRS89", "TIPO": "COMPLETAS" }, "geometry": { "type": "Point", "coordinates": [ -1.4100026, 41.1144467 ] } },
{ "type": "Feature", "properties": { "INDICATIVO": "9434", "NOMBRE": "ZARAGOZA/AEROPUERTO", "PROVINCIA": "ZARAGOZA", "ALTITUD": 263.0, "COORD_X": 666170.0, "COORD_Y": 4614014.0, "VAR_OBSVER": "hrSeENvIHBVmtTMpP", "DATUM": "ETRS89", "TIPO": "COMPLETAS" }, "geometry": { "type": "Point", "coordinates": [ -1.0041626, 41.6605606 ] } },
{ "type": "Feature", "properties": { "INDICATIVO": "9771C", "NOMBRE": "LLEIDA", "PROVINCIA": "LLEIDA", "ALTITUD": 185.0, "COORD_X": 799744.0, "COORD_Y": 4614524.0, "VAR_OBSVER": "iDdRhrSeENvIHBVmtTMpP", "DATUM": "ETRS89", "TIPO": "COMPLETAS" }, "geometry": { "type": "Point", "coordinates": [ 0.598059, 41.6261348 ] } },
{ "type": "Feature", "properties": { "INDICATIVO": "9898", "NOMBRE": "HUESCA/PIRINEOS", "PROVINCIA": "HUESCA", "ALTITUD": 541.0, "COORD_X": 721141.0, "COORD_Y": 4662490.0, "VAR_OBSVER": "heNvIHBVmtTMpP", "DATUM": "ETRS89", "TIPO": "COMPLETAS" }, "geometry": { "type": "Point", "coordinates": [ -0.3263915, 42.083351 ] } },
{ "type": "Feature", "properties": { "INDICATIVO": "9981A", "NOMBRE": "TORTOSA", "PROVINCIA": "TARRAGONA", "ALTITUD": 50.0, "COORD_X": 794618.0, "COORD_Y": 4524684.0, "VAR_OBSVER": "UiDdRheNvIHBVmtTMpP", "DATUM": "ETRS89", "TIPO": "COMPLETAS" }, "geometry": { "type": "Point", "coordinates": [ 0.4933332, 40.8203002 ] } },
{ "type": "Feature", "properties": { "INDICATIVO": "B228", "NOMBRE": "PALMA DE MALLORCA, CMT", "PROVINCIA": "BALEARES", "ALTITUD": 3.0, "COORD_X": 983435.0, "COORD_Y": 4393329.0, "VAR_OBSVER": "FUiDdRheNvIHBVmtTMpP", "DATUM": "ETRS89", "TIPO": "COMPLETAS" }, "geometry": { "type": "Point", "coordinates": [ 2.6252981, 39.5533903 ] } },
{ "type": "Feature", "properties": { "INDICATIVO": "B278", "NOMBRE": "PALMA DE MALLORCA/SON SAN JUAN", "PROVINCIA": "BALEARES", "ALTITUD": 8.0, "COORD_X": 992960.0, "COORD_Y": 4394769.0, "VAR_OBSVER": "UiDdRheENvIHBVmtTMpP", "DATUM": "ETRS89", "TIPO": "COMPLETAS" }, "geometry": { "type": "Point", "coordinates": [ 2.7366827, 39.5608909 ] } },
{ "type": "Feature", "properties": { "INDICATIVO": "B691", "NOMBRE": "LA PUEBLA (SA CANOVA)", "PROVINCIA": "BALEARES", "ALTITUD": 40.0, "COORD_X": 1015517.0, "COORD_Y": 4417171.0, "VAR_OBSVER": "hSeENvIHBVmtTMpP", "DATUM": "ETRS89", "TIPO": "COMPLETAS" }, "geometry": { "type": "Point", "coordinates": [ 3.0152971, 39.7483988 ] } },
{ "type": "Feature", "properties": { "INDICATIVO": "B893", "NOMBRE": "MENORCA/AEROPUERTO", "PROVINCIA": "BALEARES", "ALTITUD": 91.0, "COORD_X": 1117516.0, "COORD_Y": 4436634.0, "VAR_OBSVER": "heNvIHBVmtTMpP", "DATUM": "ETRS89", "TIPO": "COMPLETAS" }, "geometry": { "type": "Point", "coordinates": [ 4.2156006, 39.8548127 ] } },
{ "type": "Feature", "properties": { "INDICATIVO": "B954", "NOMBRE": "IBIZA/ES CODOLÁ", "PROVINCIA": "BALEARES", "ALTITUD": 6.0, "COORD_X": 880396.0, "COORD_Y": 4312208.0, "VAR_OBSVER": "RheNvIHBVmtTMpP", "DATUM": "ETRS89", "TIPO": "COMPLETAS" }, "geometry": { "type": "Point", "coordinates": [ 1.3844483, 38.8764207 ] } },
{ "type": "Feature", "properties": { "INDICATIVO": "C029O", "NOMBRE": "LANZAROTE/AEROPUERTO", "PROVINCIA": "LAS PALMAS", "ALTITUD": 14.0, "COORD_X": -536098.0, "COORD_Y": 3249414.0, "VAR_OBSVER": "RhreNvIHBVmtTMpP", "DATUM": "REGCAN95", "TIPO": "COMPLETAS" }, "geometry": { "type": "Point", "coordinates": [ -13.6003217, 28.9520763 ] } },
{ "type": "Feature", "properties": { "INDICATIVO": "C139E", "NOMBRE": "LA PALMA/AEROPUERTO", "PROVINCIA": "SANTA CRUZ D", "ALTITUD": 33.0, "COORD_X": -950866.0, "COORD_Y": 3258153.0, "VAR_OBSVER": "hSeENvIHBVmtTMpP", "DATUM": "REGCAN95", "TIPO": "COMPLETAS" }, "geometry": { "type": "Point", "coordinates": [ -17.755128, 28.6330971 ] } },
{ "type": "Feature", "properties": { "INDICATIVO": "C249I", "NOMBRE": "FUERTEVENTURA/AEROPUERTO", "PROVINCIA": "LAS PALMAS", "ALTITUD": 25.0, "COORD_X": -567173.0, "COORD_Y": 3195044.0, "VAR_OBSVER": "RhrSeENvIHBVmtTMpP", "DATUM": "REGCAN95", "TIPO": "COMPLETAS" }, "geometry": { "type": "Point", "coordinates": [ -13.8630899, 28.4448484 ] } },
{ "type": "Feature", "properties": { "INDICATIVO": "C329B", "NOMBRE": "LA GOMERA/AEROPUERTO", "PROVINCIA": "SANTA CRUZ D", "ALTITUD": 219.0, "COORD_X": -904890.0, "COORD_Y": 3183701.0, "VAR_OBSVER": "heNvIHBVmtTMpP", "DATUM": "REGCAN95", "TIPO": "COMPLETAS" }, "geometry": { "type": "Point", "coordinates": [ -17.2108685, 28.0317402 ] } },
{ "type": "Feature", "properties": { "INDICATIVO": "C429I", "NOMBRE": "TENERIFE/SUR", "PROVINCIA": "SANTA CRUZ D", "ALTITUD": 64.0, "COORD_X": -839777.0, "COORD_Y": 3177879.0, "VAR_OBSVER": "RheENvIHBVmtTMpP", "DATUM": "REGCAN95", "TIPO": "COMPLETAS" }, "geometry": { "type": "Point", "coordinates": [ -16.5611479, 28.0470464 ] } },
{ "type": "Feature", "properties": { "INDICATIVO": "C430E", "NOMBRE": "IZAÑA", "PROVINCIA": "SANTA CRUZ D", "ALTITUD": 2371.0, "COORD_X": -830282.0, "COORD_Y": 3206650.0, "VAR_OBSVER": "FUiDdRheNvIHBVmtTMpP", "DATUM": "REGCAN95", "TIPO": "COMPLETAS" }, "geometry": { "type": "Point", "coordinates": [ -16.4994992, 28.308997 ] } },
{ "type": "Feature", "properties": { "INDICATIVO": "C447A", "NOMBRE": "TENERIFE/LOS RODEOS", "PROVINCIA": "SANTA CRUZ D", "ALTITUD": 632.0, "COORD_X": -811227.0, "COORD_Y": 3223694.0, "VAR_OBSVER": "RheNvIHBVmtTMpP", "DATUM": "REGCAN95", "TIPO": "COMPLETAS" }, "geometry": { "type": "Point", "coordinates": [ -16.3295115, 28.4776122 ] } },
{ "type": "Feature", "properties": { "INDICATIVO": "C449C", "NOMBRE": "STA.CRUZ DE TENERIFE", "PROVINCIA": "SANTA CRUZ D", "ALTITUD": 35.0, "COORD_X": -804039.0, "COORD_Y": 3221271.0, "VAR_OBSVER": "oUiDdRheNvIHBVmtTMpP", "DATUM": "REGCAN95", "TIPO": "COMPLETAS" }, "geometry": { "type": "Point", "coordinates": [ -16.2553456, 28.4634413 ] } },
{ "type": "Feature", "properties": { "INDICATIVO": "C649I", "NOMBRE": "GRAN CANARIA/AEROPUERTO", "PROVINCIA": "LAS PALMAS", "ALTITUD": 24.0, "COORD_X": -724404.0, "COORD_Y": 3151256.0, "VAR_OBSVER": "RhSeNvIHBVmtTMpP", "DATUM": "REGCAN95", "TIPO": "COMPLETAS" }, "geometry": { "type": "Point", "coordinates": [ -15.3894599, 27.9226274 ] } },
{ "type": "Feature", "properties": { "INDICATIVO": "C929I", "NOMBRE": "HIERRO/AEROPUERTO", "PROVINCIA": "SANTA CRUZ D", "ALTITUD": 32.0, "COORD_X": -975736.0, "COORD_Y": 3167955.0, "VAR_OBSVER": "heNvIHBVmtTMpP", "DATUM": "REGCAN95", "TIPO": "COMPLETAS" }, "geometry": { "type": "Point", "coordinates": [ -17.8888975, 27.8189178 ] } }
]
}
